<?xml version="1.0" encoding="UTF-8"?>
<gpx xmlns="http://www.topografix.com/GPX/1/1"
     xmlns:xsi="http://www.w3.org/2001/XMLSchema-instance"
     xsi:schemaLocation="http://www.topografix.com/GPX/1/1 http://www.topografix.com/GPX/1/1/gpx.xsd"
     version="1.1"
     creator="Yassine MECHBAL - Yassir MAAROUFI">
   <metadata>
      <name>randonnée - Cussac</name>
      <link href="file://instance_livrable2.xml">
         <text>fr_cussac.xml</text>
      </link>
   </metadata>
   <wpt lat="45.7055740420633" lon="0.8519611512411495">
      <ele>349.0322265625</ele>
      <name>Cussac</name>
   </wpt>
   <wpt lat="45.712939" lon="0.859333">
      <ele>280.5089111328125</ele>
      <name>Monnerie</name>
   </wpt>
   <wpt lat="45.687754" lon="0.857138">
      <ele>376.1028137207031</ele>
      <name>Liades</name>
   </wpt>
   <wpt lat="45.67243279742165" lon="0.8256439978387133">
      <ele>415.4050903320312</ele>
      <name>Boubon</name>
   </wpt>
   <wpt lat="45.67606269511061" lon="0.8219117961938217">
      <ele>420.0135498046875</ele>
      <name>Villajou</name>
   </wpt>
   <wpt lat="45.68782102152895" lon="0.8150905847864954">
      <ele>380.9435729980469</ele>
      <name>Puymoroux</name>
   </wpt>
   <wpt lat="45.7055740420633" lon="0.8519611512411495">
      <ele>349.0322265625</ele>
      <name>Cussac</name>
   </wpt>
   <wpt lat="45.7055740420633" lon="0.8519611512411495">
      <ele>349.0322265625</ele>
      <name>Cussac</name>
   </wpt>
   <trk>
      <name>Cussac - randonnée</name>
      <trkseg>
         <trkpt lat="45.7055740420633" lon="0.8519611512411495">
            <ele>349.0322265625</ele>
            <time>2021-05-07T21:07:22.335+02:00</time>
            <name>Cussac</name>
         </trkpt>
         <trkpt lat="45.712939" lon="0.859333">
            <ele>280.5089111328125</ele>
            <time>2021-05-07T21:27:22.335+02:00</time>
            <name>Monnerie</name>
         </trkpt>
         <trkpt lat="45.687754" lon="0.857138">
            <ele>376.1028137207031</ele>
            <time>2021-05-07T21:47:22.335+02:00</time>
            <name>Liades</name>
         </trkpt>
         <trkpt lat="45.67243279742165" lon="0.8256439978387133">
            <ele>415.4050903320312</ele>
            <time>2021-05-07T22:07:22.335+02:00</time>
            <name>Boubon</name>
         </trkpt>
         <trkpt lat="45.67606269511061" lon="0.8219117961938217">
            <ele>420.0135498046875</ele>
            <time>2021-05-07T22:27:22.335+02:00</time>
            <name>Villajou</name>
         </trkpt>
         <trkpt lat="45.68782102152895" lon="0.8150905847864954">
            <ele>380.9435729980469</ele>
            <time>2021-05-07T22:47:22.335+02:00</time>
            <name>Puymoroux</name>
         </trkpt>
         <trkpt lat="45.7055740420633" lon="0.8519611512411495">
            <ele>349.0322265625</ele>
            <time>2021-05-07T23:07:22.335+02:00</time>
            <name>Cussac</name>
         </trkpt>
         <trkpt lat="45.7055740420633" lon="0.8519611512411495">
            <ele>349.0322265625</ele>
            <time>2021-05-07T23:27:22.335+02:00</time>
            <name>Cussac</name>
         </trkpt>
      </trkseg>
   </trk>
</gpx>
